station_ID;latitude;longitude;elevation_m;observation_time;temperature;dewpoint;wind_dir_degrees;wind_speed;pressure_hpa
KLAX;33.93;-118.38;46;2018-03-19T13:53:00Z;10.6;5.6;0;0;1018
KSEA;47.45;-122.32;136;2018-03-19T13:53:00Z;3.9;2.2;0;0;1024
FAOR;-26.12;28.22;1700;2018-03-19T13:00:00Z;22;14;300;19;1019
EGLL;51.48;-0.45;24;2018-03-19T13:50:00Z;3;-5;50;26;1015
GMMX;31.62;-8.02;466;2018-03-19T13:30:00Z;18;5;0;4;1020
RJTT;35.53;139.77;8;2018-03-19T13:30:00Z;13;11;320;9;1015
PAFA;64.8;-147.85;132;2018-03-19T13:53:00Z;-2.2;-3.3;240;7;1011
OMAA;24.42;54.63;27;2018-03-19T13:00:00Z;25;11;310;20;1013
HECA;30.12;31.38;74;2018-03-19T13:30:00Z;31;10;280;24;1008
