station_ID;latitude;longitude;elevation_m;observation_time;temperature;dewpoint;wind_dir_degrees;wind_speed;pressure_hpa
FAOR;-26.12;28.22;1700;2018-05-17T19:00:00Z;11;2;210;9;1026
EDDT;52.57;13.32;37;2018-05-17T19:20:00Z;17;9;300;19;1015
UUEE;55.97;37.42;190;2018-05-17T19:30:00Z;22;13;170;15;1010
RJTT;35.53;139.77;8;2018-05-17T19:30:00Z;20;20;80;4;1006
LEMD;40.48;-3.57;582;2018-05-17T19:30:00Z;19;10;60;13;1013
HECA;30.12;31.38;74;2018-05-17T19:30:00Z;27;15;30;19;1011
VTBD;13.92;100.6;3;2018-05-17T19:30:00Z;28;26;130;6;1007
