station_ID;latitude;longitude;elevation_m;observation_time;temperature;dewpoint;wind_dir_degrees;wind_speed;pressure_hpa
SBGL;-22.82;-43.25;6;2018-03-07T05:00:00Z;27;23;50;2;1009
FAOR;-26.12;28.22;1700;2018-03-07T05:00:00Z;17;14;20;15;1022
OMAA;24.42;54.63;27;2018-03-07T05:00:00Z;22;15;0;0;1016
SCEL;-33.37;-70.77;476;2018-03-07T05:00:00Z;15;11;170;15;1012
SKBO;4.7;-74.12;2548;2018-03-07T05:00:00Z;12;10;80;6;1027
TXKF;32.37;-64.68;6;2018-03-07T04:55:00Z;16;8;320;31;1012
KMIA;25.8;-80.28;3;2018-03-07T04:53:00Z;19.4;14.4;180;9;1017
ZSNJ;31.75;118.87;33;2018-03-07T05:00:00Z;7;6;50;15;1022
KSEA;47.45;-122.32;136;2018-03-07T04:53:00Z;6.7;-1.1;30;24;1023
EDDT;52.57;13.32;37;2018-03-07T04:50:00Z;0;0;0;4;991
KJFK;40.63;-73.77;9;2018-03-07T04:51:00Z;2.8;-0.6;110;22;1015
KLAX;33.93;-118.38;46;2018-03-07T04:53:00Z;16.1;4.4;180;6;1017
RJTT;35.53;139.77;8;2018-03-07T05:00:00Z;7;0;60;31;1033
YSSY;-33.95;151.17;3;2018-03-07T05:00:00Z;24;10;130;20;1025
UUEE;55.97;37.42;190;2018-03-07T05:00:00Z;-10;-14;100;19;1012
HECA;30.12;31.38;74;2018-03-07T05:00:00Z;17;15;0;0;1016
PAFA;64.8;-147.85;132;2018-03-07T04:53:00Z;-5;-7.2;0;0;1015
HRYR;-1.97;30.12;1497;2018-03-07T04:00:00Z;17;16;10;4;1021
KMCI;39.3;-94.73;320;2018-03-07T04:53:00Z;0;-5;330;24;1021
EGLL;51.48;-0.45;24;2018-03-07T04:50:00Z;5;4;290;6;991
LEMD;40.48;-3.57;582;2018-03-07T05:00:00Z;5;-2;270;13;1008
VTBD;13.92;100.6;3;2018-03-07T05:00:00Z;34;25;170;7;1010
GMMX;31.62;-8.02;466;2018-03-07T05:00:00Z;15;12;210;7;1014
