station_ID;latitude;longitude;elevation_m;observation_time;temperature;dewpoint;wind_dir_degrees;wind_speed;pressure_hpa
SKBO;4.7;-74.12;2548;2018-04-18T21:00:00Z;15;11;160;13;1025
FAOR;-26.12;28.22;1700;2018-04-18T20:00:00Z;16;12;290;17;1024
KMCI;39.3;-94.73;320;2018-04-18T20:53:00Z;5;-2.2;300;26;1018
PAFA;64.8;-147.85;132;2018-04-18T20:53:00Z;5;-11.1;80;22;1005
SCEL;-33.37;-70.77;476;2018-04-18T21:00:00Z;25;8;180;22;1012
ZSNJ;31.75;118.87;33;2018-04-18T20:00:00Z;12;10;80;7;1013
OMAA;24.42;54.63;27;2018-04-18T20:00:00Z;25;17;290;17;1012
KMIA;25.8;-80.28;3;2018-04-18T20:53:00Z;26.7;15.6;100;19;1019
TXKF;32.37;-64.68;6;2018-04-18T20:55:00Z;21;14;240;24;1019
KLAX;33.93;-118.38;46;2018-04-18T20:53:00Z;18.3;8.3;240;26;1018
KSEA;47.45;-122.32;136;2018-04-18T20:53:00Z;13.3;3.9;350;13;1022
SBGL;-22.82;-43.25;6;2018-04-18T21:00:00Z;24;18;150;19;1022
KJFK;40.63;-73.77;9;2018-04-18T20:51:00Z;11.1;-0.6;230;33;1009
GMMX;31.62;-8.02;466;2018-04-18T20:30:00Z;26;7;290;15;1017
YSSY;-33.95;151.17;3;2018-04-18T20:30:00Z;17;12;330;13;1021
HRYR;-1.97;30.12;1497;2018-04-18T20:30:00Z;19;17;220;6;1022
LEMD;40.48;-3.57;582;2018-04-18T20:30:00Z;19;5;120;7;1023
VTBD;13.92;100.6;3;2018-04-18T20:30:00Z;27;24;160;7;1009
HECA;30.12;31.38;74;2018-04-18T21:00:00Z;22;11;350;15;1018
EDDT;52.57;13.32;37;2018-04-18T20:50:00Z;15;9;310;4;1031
EGLL;51.48;-0.45;24;2018-04-18T20:50:00Z;18;10;90;15;1025
UUEE;55.97;37.42;190;2018-04-18T20:30:00Z;6;6;300;19;1006
RJTT;35.53;139.77;8;2018-04-18T20:30:00Z;13;10;280;6;1017
