station_ID;latitude;longitude;elevation_m;observation_time;temperature;dewpoint;wind_dir_degrees;wind_speed;pressure_hpa
SKBO;4.7;-74.12;2548;2018-05-17T23:00:00Z;18;11;240;9;1023
FAOR;-26.12;28.22;1700;2018-05-17T23:00:00Z;9;1;180;9;1026
RJTT;35.53;139.77;8;2018-05-17T23:00:00Z;22;21;90;15;1007
KSEA;47.45;-122.32;136;2018-05-17T22:53:00Z;18.9;9.4;290;13;1018
PAFA;64.8;-147.85;132;2018-05-17T22:53:00Z;13.3;0;0;0;1021
VTBD;13.92;100.6;3;2018-05-17T23:00:00Z;27;26;100;9;1007
KJFK;40.63;-73.77;9;2018-05-17T22:51:00Z;17.8;16.1;200;9;1018
UUEE;55.97;37.42;190;2018-05-17T23:00:00Z;16;13;80;15;1011
