station_ID;latitude;longitude;elevation_m;observation_time;temperature;dewpoint;wind_dir_degrees;wind_speed;pressure_hpa
OMAA;24.42;54.63;27;2018-04-28T19:00:00Z;32;16;60;11;1007
SCEL;-33.37;-70.77;476;2018-04-28T19:00:00Z;25;1;0;4;1015
PAFA;64.8;-147.85;132;2018-04-28T18:53:00Z;5;-5;90;11;1008
SBGL;-22.82;-43.25;6;2018-04-28T19:00:00Z;29;19;140;15;1016
TXKF;32.37;-64.68;6;2018-04-28T18:55:00Z;23;20;160;33;1018
GMMX;31.62;-8.02;466;2018-04-28T19:00:00Z;21;13;220;13;1015
HRYR;-1.97;30.12;1497;2018-04-28T19:00:00Z;20;17;330;6;1022
VTBD;13.92;100.6;3;2018-04-28T19:00:00Z;24;24;340;7;1011
EGLL;51.48;-0.45;24;2018-04-28T19:20:00Z;8;6;20;7;1012
