station_ID;latitude;longitude;elevation_m;observation_time;temperature;dewpoint;wind_dir_degrees;wind_speed;pressure_hpa
OMAA;24.42;54.63;27;2018-06-16T06:00:00Z;38;18;290;31;1001
SCEL;-33.37;-70.77;476;2018-06-16T06:00:00Z;6;3;0;0;1021
FAOR;-26.12;28.22;1700;2018-06-16T06:00:00Z;7;2;190;30;1023
ZSNJ;31.75;118.87;33;2018-06-16T06:00:00Z;29;18;120;22;1007
SKBO;4.7;-74.12;2548;2018-06-16T06:00:00Z;12;10;20;7;1029
UUEE;55.97;37.42;190;2018-06-16T06:00:00Z;19;6;150;7;1022
GMMX;31.62;-8.02;466;2018-06-16T06:00:00Z;17;15;230;9;1014
LEMD;40.48;-3.57;582;2018-06-16T06:00:00Z;19;14;0;2;1017
EDDT;52.57;13.32;37;2018-06-16T06:20:00Z;20;13;170;7;1017
HRYR;-1.97;30.12;1497;2018-06-16T06:00:00Z;20;15;290;6;1024
EGLL;51.48;-0.45;24;2018-06-16T06:20:00Z;15;9;210;13;1015
VTBD;13.92;100.6;3;2018-06-16T06:00:00Z;33;25;260;24;1005
HECA;30.12;31.38;74;2018-06-16T06:00:00Z;35;9;300;28;1007
SBGL;-22.82;-43.25;6;2018-06-16T06:00:00Z;20;18;280;9;1024
KMCI;39.3;-94.73;320;2018-06-16T05:53:00Z;24.4;20;170;15;1012
KSEA;47.45;-122.32;136;2018-06-16T05:53:00Z;16.7;8.3;20;20;1013
KJFK;40.63;-73.77;9;2018-06-16T05:51:00Z;17.2;15;250;11;1017
TXKF;32.37;-64.68;6;2018-06-16T05:55:00Z;24;22;250;28;1013
PAFA;64.8;-147.85;132;2018-06-16T05:53:00Z;14.4;7.2;190;9;1003
KLAX;33.93;-118.38;46;2018-06-16T05:53:00Z;17.2;13.9;240;11;1008
YSSY;-33.95;151.17;3;2018-06-16T06:00:00Z;17;-1;290;33;1011
KMIA;25.8;-80.28;3;2018-06-16T05:53:00Z;23.9;22.8;0;0;1017
RJTT;35.53;139.77;8;2018-06-16T06:00:00Z;18;15;70;24;1012
