station_ID;latitude;longitude;elevation_m;observation_time;temperature;dewpoint;wind_dir_degrees;wind_speed;pressure_hpa
SCEL;-33.37;-70.77;476;2018-04-27T03:00:00Z;14;7;150;9;1019
OMAA;24.42;54.63;27;2018-04-27T03:00:00Z;25;19;360;6;1007
KSEA;47.45;-122.32;136;2018-04-27T02:53:00Z;22.2;6.7;340;15;1011
HECA;30.12;31.38;74;2018-04-27T03:30:00Z;18;16;240;13;1010
GMMX;31.62;-8.02;466;2018-04-27T03:30:00Z;15;11;240;2;1014
YSSY;-33.95;151.17;3;2018-04-27T03:30:00Z;19;12;190;41;1022
LEMD;40.48;-3.57;582;2018-04-27T03:30:00Z;14;11;0;0;1013
