station_ID;latitude;longitude;elevation_m;observation_time;temperature;dewpoint;wind_dir_degrees;wind_speed;pressure_hpa
OMAA;24.42;54.63;27;2018-04-09T05:00:00Z;29;20;280;7;1011
SCEL;-33.37;-70.77;476;2018-04-09T06:00:00Z;12;8;270;6;1014
YSSY;-33.95;151.17;3;2018-04-09T05:44:00Z;25;18;170;33;1015
KLAX;33.93;-118.38;46;2018-04-09T05:53:00Z;16.7;11.1;0;0;1013
KMIA;25.8;-80.28;3;2018-04-09T05:53:00Z;23.3;20.6;220;6;1015
TXKF;32.37;-64.68;6;2018-04-09T04:55:00Z;19;15;310;22;1015
HRYR;-1.97;30.12;1497;2018-04-09T05:30:00Z;17;17;10;4;1021
EGLL;51.48;-0.45;24;2018-04-09T05:50:00Z;8;8;40;9;1009
VTBD;13.92;100.6;3;2018-04-09T05:30:00Z;32;20;140;11;1013
