station_ID;latitude;longitude;elevation_m;observation_time;temperature;dewpoint;wind_dir_degrees;wind_speed;pressure_hpa
ZSNJ;31.75;118.87;33;2018-03-21T09:00:00Z;12;4;290;15;1020
FAOR;-26.12;28.22;1700;2018-03-21T09:00:00Z;22;14;310;28;1024
HECA;30.12;31.38;74;2018-03-21T09:30:00Z;31;-4;60;28;1018
KJFK;40.63;-73.77;9;2018-03-21T08:51:00Z;2.8;-9.4;40;33;1005
GMMX;31.62;-8.02;466;2018-03-21T09:30:00Z;11;-1;80;11;1024
LEMD;40.48;-3.57;582;2018-03-21T09:30:00Z;8;-4;350;24;1023
RJTT;35.53;139.77;8;2018-03-21T09:30:00Z;4;4;340;30;1013
YSSY;-33.95;151.17;3;2018-03-21T09:30:00Z;19;16;160;39;1027
