station_ID;latitude;longitude;elevation_m;observation_time;temperature;dewpoint;wind_dir_degrees;wind_speed;pressure_hpa
KMIA;25.8;-80.28;3;2018-05-09T16:53:00Z;28.9;19.4;60;20;1018
SCEL;-33.37;-70.77;476;2018-05-09T17:00:00Z;18;9;0;4;1018
SBGL;-22.82;-43.25;6;2018-05-09T17:00:00Z;26;17;140;19;1020
FAOR;-26.12;28.22;1700;2018-05-09T16:00:00Z;17;-1;210;9;1023
KJFK;40.63;-73.77;9;2018-05-09T16:51:00Z;14.4;11.1;150;22;1022
UUEE;55.97;37.42;190;2018-05-09T16:30:00Z;15;-3;40;26;1019
EGLL;51.48;-0.45;24;2018-05-09T16:50:00Z;18;8;260;22;1007
VTBD;13.92;100.6;3;2018-05-09T16:30:00Z;30;27;180;11;1011
RJTT;35.53;139.77;8;2018-05-09T16:30:00Z;13;9;40;15;1017
