station_ID;latitude;longitude;elevation_m;observation_time;temperature;dewpoint;wind_dir_degrees;wind_speed;pressure_hpa
ZSNJ;31.75;118.87;33;2018-04-27T23:00:00Z;17;14;60;7;1018
OMAA;24.42;54.63;27;2018-04-27T23:00:00Z;29;17;70;11;1006
EDDT;52.57;13.32;37;2018-04-27T22:50:00Z;11;5;70;9;1010
KSEA;47.45;-122.32;136;2018-04-27T22:53:00Z;13.9;8.3;210;26;1014
KJFK;40.63;-73.77;9;2018-04-27T22:55:00Z;10;10;330;13;1007
LEMD;40.48;-3.57;582;2018-04-27T23:00:00Z;17;7;240;24;1011
EGLL;51.48;-0.45;24;2018-04-27T22:50:00Z;10;10;0;4;1005
GMMX;31.62;-8.02;466;2018-04-27T23:00:00Z;19;15;230;6;1016
YSSY;-33.95;151.17;3;2018-04-27T23:00:00Z;16;15;210;28;1025
