station_ID;latitude;longitude;elevation_m;observation_time;temperature;dewpoint;wind_dir_degrees;wind_speed;pressure_hpa
SCEL;-33.37;-70.77;476;2018-04-11T05:00:00Z;16;11;120;7;1018
FAOR;-26.12;28.22;1700;2018-04-11T05:00:00Z;14;13;80;19;1025
OMAA;24.42;54.63;27;2018-04-11T05:00:00Z;32;8;100;17;1010
KLAX;33.93;-118.38;46;2018-04-11T02:53:00Z;18.3;11.1;240;19;1015
GMMX;31.62;-8.02;466;2018-04-11T05:00:00Z;14;5;230;15;1014
KMIA;25.8;-80.28;3;2018-04-11T02:53:00Z;23.3;18.9;130;13;1017
RJTT;35.53;139.77;8;2018-04-11T05:00:00Z;21;12;210;52;1008
HRYR;-1.97;30.12;1497;2018-04-11T05:00:00Z;18;18;200;4;1019
