station_ID;latitude;longitude;elevation_m;observation_time;temperature;dewpoint;wind_dir_degrees;wind_speed;pressure_hpa
TXKF;32.37;-64.68;6;2018-05-09T13:55:00Z;24;20;160;30;1024
KMIA;25.8;-80.28;3;2018-05-09T13:53:00Z;26.7;20;40;13;1018
OMAA;24.42;54.63;27;2018-05-09T13:22:00Z;39;20;350;22;1001
KSEA;47.45;-122.32;136;2018-05-09T13:53:00Z;13.3;10.6;200;13;1017
LEMD;40.48;-3.57;582;2018-05-09T13:30:00Z;24;10;20;7;1010
EDDT;52.57;13.32;37;2018-05-09T13:50:00Z;27;8;140;26;1009
RJTT;35.53;139.77;8;2018-05-09T13:30:00Z;14;10;10;19;1017
