station_ID;latitude;longitude;elevation_m;observation_time;temperature;dewpoint;wind_dir_degrees;wind_speed;pressure_hpa
KSEA;47.45;-122.32;136;2018-03-11T18:53:00Z;13.3;5;0;9;1022
OMAA;24.42;54.63;27;2018-03-11T18:00:00Z;28;12;80;15;1011
SBGL;-22.82;-43.25;6;2018-03-11T19:00:00Z;30;21;170;15;1007
HECA;30.12;31.38;74;2018-03-11T18:30:00Z;19;13;10;13;1018
UUEE;55.97;37.42;190;2018-03-11T18:30:00Z;-4;-8;170;15;1021
EDDT;52.57;13.32;37;2018-03-11T18:50:00Z;12;7;110;9;996
YSSY;-33.95;151.17;3;2018-03-11T18:30:00Z;19;16;220;9;1017
KLAX;33.93;-118.38;46;2018-03-11T18:53:00Z;15.6;15.6;100;13;1019
