station_ID;latitude;longitude;elevation_m;observation_time;temperature;dewpoint;wind_dir_degrees;wind_speed;pressure_hpa
ZSNJ;31.75;118.87;33;2018-03-12T03:00:00Z;21;7;0;7;1019
TXKF;32.37;-64.68;6;2018-03-12T03:55:00Z;19;15;200;20;1018
SCEL;-33.37;-70.77;476;2018-03-12T04:00:00Z;20;4;160;11;1012
KSEA;47.45;-122.32;136;2018-03-12T03:53:00Z;13.9;1.7;50;17;1020
FAOR;-26.12;28.22;1700;2018-03-12T03:00:00Z;14;11;0;0;1024
EDDT;52.57;13.32;37;2018-03-12T03:50:00Z;8;5;80;6;992
OMAA;24.42;54.63;27;2018-03-12T03:00:00Z;24;13;140;26;1011
LEMD;40.48;-3.57;582;2018-03-12T03:30:00Z;8;5;230;31;1010
YSSY;-33.95;151.17;3;2018-03-12T03:30:00Z;26;18;150;19;1016
