station_ID;latitude;longitude;elevation_m;observation_time;temperature;dewpoint;wind_dir_degrees;wind_speed;pressure_hpa
OMAA;24.42;54.63;27;2018-04-05T20:00:00Z;27;14;80;9;1006
SBGL;-22.82;-43.25;6;2018-04-05T20:00:00Z;28;23;110;19;1009
PAFA;64.8;-147.85;132;2018-04-05T19:53:00Z;1.1;-11.7;90;11;1013
KSEA;47.45;-122.32;136;2018-04-05T20:10:00Z;11.7;10;180;13;1013
EDDT;52.57;13.32;37;2018-04-05T19:50:00Z;6;3;280;33;1015
EGLL;51.48;-0.45;24;2018-04-05T19:50:00Z;7;0;160;17;1018
TXKF;32.37;-64.68;6;2018-04-05T19:55:00Z;21;18;250;22;1014
RJTT;35.53;139.77;8;2018-04-05T20:00:00Z;14;14;160;13;1012
