station_ID;latitude;longitude;elevation_m;observation_time;temperature;dewpoint;wind_dir_degrees;wind_speed;pressure_hpa
OMAA;24.42;54.63;27;2018-03-12T05:43:00Z;27;14;150;28;1012
TXKF;32.37;-64.68;6;2018-03-12T05:55:00Z;19;16;190;30;1016
SCEL;-33.37;-70.77;476;2018-03-12T06:00:00Z;18;5;160;11;1012
FAOR;-26.12;28.22;1700;2018-03-12T05:00:00Z;18;11;80;6;1025
KJFK;40.63;-73.77;9;2018-03-12T05:51:00Z;1.1;-5;10;13;1019
KLAX;33.93;-118.38;46;2018-03-12T05:53:00Z;16.1;14.4;0;0;1020
YSSY;-33.95;151.17;3;2018-03-12T05:30:00Z;24;19;180;24;1015
PAFA;64.8;-147.85;132;2018-03-12T05:53:00Z;-12.2;-13.3;0;0;997
LEMD;40.48;-3.57;582;2018-03-12T05:30:00Z;8;5;220;24;1012
