station_ID;latitude;longitude;elevation_m;observation_time;temperature;dewpoint;wind_dir_degrees;wind_speed;pressure_hpa
ZSNJ;31.75;118.87;33;2018-04-10T19:00:00Z;19;15;200;7;1009
SCEL;-33.37;-70.77;476;2018-04-10T19:00:00Z;21;8;160;7;1016
UUEE;55.97;37.42;190;2018-04-10T19:00:00Z;4;2;30;30;1013
LEMD;40.48;-3.57;582;2018-04-10T19:00:00Z;4;3;300;19;994
PAFA;64.8;-147.85;132;2018-04-10T18:53:00Z;3.3;-6.1;80;7;998
KMIA;25.8;-80.28;3;2018-04-10T18:53:00Z;32.2;20.6;150;19;1016
VTBD;13.92;100.6;3;2018-04-10T19:00:00Z;28;25;200;7;1009
