station_ID;latitude;longitude;elevation_m;observation_time;temperature;dewpoint;wind_dir_degrees;wind_speed;pressure_hpa
SKBO;4.7;-74.12;2548;2018-05-21T08:00:00Z;11;10;0;4;1026
GMMX;31.62;-8.02;466;2018-05-21T08:00:00Z;16;13;260;6;1014
YSSY;-33.95;151.17;3;2018-05-21T08:00:00Z;17;3;260;35;1019
UUEE;55.97;37.42;190;2018-05-21T08:00:00Z;17;3;70;22;1028
HECA;30.12;31.38;74;2018-05-21T08:00:00Z;34;6;80;24;1013
EDDT;52.57;13.32;37;2018-05-21T07:50:00Z;19;5;80;13;1023
RJTT;35.53;139.77;8;2018-05-21T08:00:00Z;24;11;160;19;1018
KMIA;25.8;-80.28;3;2018-05-21T07:53:00Z;24.4;23.3;120;15;1016
