station_ID;latitude;longitude;elevation_m;observation_time;temperature;dewpoint;wind_dir_degrees;wind_speed;pressure_hpa
SCEL;-33.37;-70.77;476;2018-03-17T14:00:00Z;16;8;260;7;1017
TXKF;32.37;-64.68;6;2018-03-17T13:55:00Z;16;7;310;30;1016
EDDT;52.57;13.32;37;2018-03-17T13:50:00Z;-2;-14;80;30;1014
KLAX;33.93;-118.38;46;2018-03-17T13:53:00Z;11.7;7.2;270;19;1016
GMMX;31.62;-8.02;466;2018-03-17T13:30:00Z;16;3;260;13;1017
