station_ID;latitude;longitude;elevation_m;observation_time;temperature;dewpoint;wind_dir_degrees;wind_speed;pressure_hpa
SCEL;-33.37;-70.77;476;2018-05-14T21:00:00Z;17;7;150;6;1017
HECA;30.12;31.38;74;2018-05-14T20:30:00Z;22;15;10;17;1017
KSEA;47.45;-122.32;136;2018-05-14T20:53:00Z;27.2;12.2;280;11;1013
FAOR;-26.12;28.22;1700;2018-05-14T20:00:00Z;9;7;0;4;1025
SKBO;4.7;-74.12;2548;2018-05-14T21:00:00Z;15;12;10;7;1024
KMCI;39.3;-94.73;320;2018-05-14T20:53:00Z;28.3;19.4;180;17;1010
ZSNJ;31.75;118.87;33;2018-05-14T20:00:00Z;26;23;150;7;1002
OMAA;24.42;54.63;27;2018-05-14T20:00:00Z;30;21;350;13;1005
TXKF;32.37;-64.68;6;2018-05-14T20:55:00Z;25;19;210;20;1022
SBGL;-22.82;-43.25;6;2018-05-14T21:00:00Z;24;19;140;20;1017
PAFA;64.8;-147.85;132;2018-05-14T20:53:00Z;11.1;4.4;210;15;1007
KJFK;40.63;-73.77;9;2018-05-14T20:51:00Z;16.7;13.9;170;19;1015
KLAX;33.93;-118.38;46;2018-05-14T20:53:00Z;18.3;11.7;260;26;1016
UUEE;55.97;37.42;190;2018-05-14T20:30:00Z;13;7;0;4;1021
HRYR;-1.97;30.12;1497;2018-05-14T20:30:00Z;19;16;230;9;1020
VTBD;13.92;100.6;3;2018-05-14T20:30:00Z;25;25;60;6;1008
EGLL;51.48;-0.45;24;2018-05-14T20:50:00Z;15;5;40;9;1021
LEMD;40.48;-3.57;582;2018-05-14T20:30:00Z;14;3;350;13;1019
EDDT;52.57;13.32;37;2018-05-14T20:50:00Z;17;4;70;6;1016
GMMX;31.62;-8.02;466;2018-05-14T20:30:00Z;23;9;10;24;1013
RJTT;35.53;139.77;8;2018-05-14T20:30:00Z;19;12;180;6;1012
YSSY;-33.95;151.17;3;2018-05-14T20:30:00Z;12;9;320;9;1022
KMIA;25.8;-80.28;3;2018-05-14T20:53:00Z;28.3;21.7;100;17;1013
