station_ID;latitude;longitude;elevation_m;observation_time;temperature;dewpoint;wind_dir_degrees;wind_speed;pressure_hpa
SCEL;-33.37;-70.77;476;2018-05-06T22:00:00Z;19;9;160;15;1017
FAOR;-26.12;28.22;1700;2018-05-06T22:00:00Z;11;-3;90;9;1028
KMCI;39.3;-94.73;320;2018-05-06T21:53:00Z;28.3;10.6;360;13;1017
KSEA;47.45;-122.32;136;2018-05-06T21:53:00Z;23.9;12.8;0;11;1016
KLAX;33.93;-118.38;46;2018-05-06T21:53:00Z;19.4;11.7;250;26;1016
LEMD;40.48;-3.57;582;2018-05-06T22:00:00Z;16;14;180;7;1017
HECA;30.12;31.38;74;2018-05-06T22:00:00Z;21;18;340;22;1009
