station_ID;latitude;longitude;elevation_m;observation_time;temperature;dewpoint;wind_dir_degrees;wind_speed;pressure_hpa
SBGL;-22.82;-43.25;6;2018-05-03T18:00:00Z;28;20;60;17;1017
KSEA;47.45;-122.32;136;2018-05-03T17:53:00Z;17.8;9.4;280;7;1020
OMAA;24.42;54.63;27;2018-05-03T18:00:00Z;31;17;320;20;1009
SKBO;4.7;-74.12;2548;2018-05-03T18:00:00Z;19;12;250;19;1026
HRYR;-1.97;30.12;1497;2018-05-03T16:00:00Z;24;16;0;2;1017
HECA;30.12;31.38;74;2018-05-03T18:30:00Z;32;11;50;17;1006
