station_ID;latitude;longitude;elevation_m;observation_time;temperature;dewpoint;wind_dir_degrees;wind_speed;pressure_hpa
SCEL;-33.37;-70.77;476;2018-03-20T09:00:00Z;10;4;0;6;1014
OMAA;24.42;54.63;27;2018-03-20T09:00:00Z;28;16;330;17;1015
SKBO;4.7;-74.12;2548;2018-03-20T09:00:00Z;12;10;50;7;1023
SBGL;-22.82;-43.25;6;2018-03-20T09:00:00Z;28;23;350;9;1008
ZSNJ;31.75;118.87;33;2018-03-20T09:00:00Z;5;4;340;19;1020
TXKF;32.37;-64.68;6;2018-03-20T08:55:00Z;14;11;120;7;1014
KLAX;33.93;-118.38;46;2018-03-20T08:53:00Z;13.3;10;0;0;1018
FAOR;-26.12;28.22;1700;2018-03-20T09:00:00Z;24;15;360;19;1023
KMIA;25.8;-80.28;3;2018-03-20T08:53:00Z;21.7;21.7;180;6;1010
KJFK;40.63;-73.77;9;2018-03-20T08:51:00Z;-0.6;-12.8;30;19;1014
KSEA;47.45;-122.32;136;2018-03-20T08:53:00Z;5;2.2;90;7;1021
LEMD;40.48;-3.57;582;2018-03-20T09:30:00Z;6;-3;340;20;1013
YSSY;-33.95;151.17;3;2018-03-20T09:30:00Z;23;18;150;39;1024
HECA;30.12;31.38;74;2018-03-20T09:30:00Z;27;6;270;6;1015
GMMX;31.62;-8.02;466;2018-03-20T09:30:00Z;15;6;90;6;1021
KMCI;39.3;-94.73;320;2018-03-20T08:53:00Z;5.6;-1.7;340;9;1012
EDDT;52.57;13.32;37;2018-03-20T09:20:00Z;-2;-3;0;4;1013
PAFA;64.8;-147.85;132;2018-03-20T09:14:00Z;-3.9;-6.7;160;7;1021
HRYR;-1.97;30.12;1497;2018-03-20T09:00:00Z;22;16;10;7;1022
UUEE;55.97;37.42;190;2018-03-20T09:30:00Z;1;-8;240;22;1008
EGLL;51.48;-0.45;24;2018-03-20T09:20:00Z;5;1;20;19;1027
VTBD;13.92;100.6;3;2018-03-20T09:30:00Z;35;24;160;15;1006
RJTT;35.53;139.77;8;2018-03-20T09:30:00Z;9;5;40;31;1020
