station_ID;latitude;longitude;elevation_m;observation_time;temperature;dewpoint;wind_dir_degrees;wind_speed;pressure_hpa
FAOR;-26.12;28.22;1700;2018-05-29T01:00:00Z;14;3;340;11;1025
ZSNJ;31.75;118.87;33;2018-05-29T01:00:00Z;25;23;0;4;1011
SCEL;-33.37;-70.77;476;2018-05-29T01:00:00Z;11;6;0;4;1017
OMAA;24.42;54.63;27;2018-05-29T01:00:00Z;31;22;90;7;1003
SBGL;-22.82;-43.25;6;2018-05-29T01:00:00Z;21;18;90;11;1025
PAFA;64.8;-147.85;132;2018-05-29T00:53:00Z;19.4;-2.8;0;6;1009
SKBO;4.7;-74.12;2548;2018-05-29T01:00:00Z;13;10;20;6;1028
TXKF;32.37;-64.68;6;2018-05-29T00:55:00Z;25;22;230;19;1022
HECA;30.12;31.38;74;2018-05-29T01:00:00Z;24;19;70;9;1010
EDDT;52.57;13.32;37;2018-05-29T01:20:00Z;21;12;80;9;1018
KMCI;39.3;-94.73;320;2018-05-29T00:53:00Z;28.9;18.3;130;15;1011
KSEA;47.45;-122.32;136;2018-05-29T00:53:00Z;18.9;7.8;280;9;1022
RJTT;35.53;139.77;8;2018-05-29T01:00:00Z;24;20;160;19;1015
HRYR;-1.97;30.12;1497;2018-05-29T01:00:00Z;17;15;310;7;1020
YSSY;-33.95;151.17;3;2018-05-29T01:00:00Z;21;9;310;9;1019
KMIA;25.8;-80.28;3;2018-05-29T00:53:00Z;25.6;22.8;140;9;1014
UUEE;55.97;37.42;190;2018-05-29T01:00:00Z;6;3;330;4;1031
KJFK;40.63;-73.77;9;2018-05-29T00:51:00Z;13.9;13.3;160;15;1018
KLAX;33.93;-118.38;46;2018-05-29T00:53:00Z;17.8;13.3;250;24;1011
VTBD;13.92;100.6;3;2018-05-29T01:00:00Z;29;26;120;13;1010
EGLL;51.48;-0.45;24;2018-05-29T01:20:00Z;15;13;10;7;1018
LEMD;40.48;-3.57;582;2018-05-29T01:00:00Z;14;14;340;6;1015
GMMX;31.62;-8.02;466;2018-05-29T01:00:00Z;16;11;10;11;1019
