station_ID;latitude;longitude;elevation_m;observation_time;temperature;dewpoint;wind_dir_degrees;wind_speed;pressure_hpa
FAOR;-26.12;28.22;1700;2018-05-17T22:00:00Z;9;3;180;7;1027
TXKF;32.37;-64.68;6;2018-05-17T21:55:00Z;25;20;170;17;1026
GMMX;31.62;-8.02;466;2018-05-17T22:30:00Z;16;12;250;11;1014
HRYR;-1.97;30.12;1497;2018-05-17T22:30:00Z;19;17;0;4;1020
EGLL;51.48;-0.45;24;2018-05-17T22:20:00Z;10;4;40;11;1027
HECA;30.12;31.38;74;2018-05-17T22:00:00Z;24;19;350;13;1011
VTBD;13.92;100.6;3;2018-05-17T22:30:00Z;27;26;100;9;1007
