station_ID;latitude;longitude;elevation_m;observation_time;temperature;dewpoint;wind_dir_degrees;wind_speed;pressure_hpa
ZSNJ;31.75;118.87;33;2018-05-09T20:00:00Z;15;13;130;7;1020
OMAA;24.42;54.63;27;2018-05-09T20:00:00Z;33;13;80;11;1003
KJFK;40.63;-73.77;9;2018-05-09T19:51:00Z;16.1;11.1;160;9;1021
FAOR;-26.12;28.22;1700;2018-05-09T19:00:00Z;17;-1;260;6;1025
SCEL;-33.37;-70.77;476;2018-05-09T20:00:00Z;17;7;190;20;1018
GMMX;31.62;-8.02;466;2018-05-09T20:00:00Z;21;13;20;13;1015
RJTT;35.53;139.77;8;2018-05-09T20:00:00Z;12;9;30;11;1017
VTBD;13.92;100.6;3;2018-05-09T20:00:00Z;29;27;0;0;1009
