station_ID;latitude;longitude;elevation_m;observation_time;temperature;dewpoint;wind_dir_degrees;wind_speed;pressure_hpa
KJFK;40.63;-73.77;9;2018-03-16T11:51:00Z;1.1;-5;300;30;1005
SCEL;-33.37;-70.77;476;2018-03-16T12:00:00Z;12;3;150;13;1015
FAOR;-26.12;28.22;1700;2018-03-16T11:00:00Z;26;12;280;13;1020
PAFA;64.8;-147.85;132;2018-03-16T11:53:00Z;-7.8;-10.6;50;13;1010
HRYR;-1.97;30.12;1497;2018-03-16T11:30:00Z;26;16;0;6;1018
YSSY;-33.95;151.17;3;2018-03-16T11:30:00Z;23;16;0;0;1017
