station_ID;latitude;longitude;elevation_m;observation_time;temperature;dewpoint;wind_dir_degrees;wind_speed;pressure_hpa
UUEE;55.97;37.42;190;2018-03-07T19:30:00Z;-9;-11;80;19;1010
YSSY;-33.95;151.17;3;2018-03-07T19:30:00Z;21;13;130;15;1024
TXKF;32.37;-64.68;6;2018-03-07T19:55:00Z;20;11;220;31;1013
KMCI;39.3;-94.73;320;2018-03-07T19:53:00Z;1.7;-6.1;310;22;1022
RJTT;35.53;139.77;8;2018-03-07T19:30:00Z;6;2;340;22;1030
HRYR;-1.97;30.12;1497;2018-03-07T19:30:00Z;19;14;190;7;1021
