station_ID;latitude;longitude;elevation_m;observation_time;temperature;dewpoint;wind_dir_degrees;wind_speed;pressure_hpa
ZSNJ;31.75;118.87;33;2018-05-22T13:00:00Z;19;17;290;7;1014
TXKF;32.37;-64.68;6;2018-05-22T12:55:00Z;25;19;210;15;1025
SBGL;-22.82;-43.25;6;2018-05-22T13:00:00Z;21;11;10;4;1020
SKBO;4.7;-74.12;2548;2018-05-22T13:00:00Z;13;10;50;11;1028
KSEA;47.45;-122.32;136;2018-05-22T12:53:00Z;11.7;8.9;10;11;1015
RJTT;35.53;139.77;8;2018-05-22T13:00:00Z;18;13;140;15;1017
HECA;30.12;31.38;74;2018-05-22T13:00:00Z;44;4;250;9;1011
