station_ID;latitude;longitude;elevation_m;observation_time;temperature;dewpoint;wind_dir_degrees;wind_speed;pressure_hpa
ZSNJ;31.75;118.87;33;2018-05-02T14:00:00Z;17;12;90;15;1020
YSSY;-33.95;151.17;3;2018-05-02T14:00:00Z;17;14;330;9;1019
EDDT;52.57;13.32;37;2018-05-02T14:20:00Z;15;4;70;13;1013
UUEE;55.97;37.42;190;2018-05-02T14:00:00Z;24;12;200;7;1013
GMMX;31.62;-8.02;466;2018-05-02T13:30:00Z;20;5;0;6;1016
