station_ID;latitude;longitude;elevation_m;observation_time;temperature;dewpoint;wind_dir_degrees;wind_speed;pressure_hpa
ZSNJ;31.75;118.87;33;2018-03-18T22:00:00Z;8;7;20;11;1018
SKBO;4.7;-74.12;2548;2018-03-18T23:00:00Z;13;11;70;7;1023
OMAA;24.42;54.63;27;2018-03-18T22:00:00Z;22;14;290;15;1012
SBGL;-22.82;-43.25;6;2018-03-18T23:00:00Z;27;23;120;11;1009
FAOR;-26.12;28.22;1700;2018-03-18T22:00:00Z;17;12;340;13;1020
KJFK;40.63;-73.77;9;2018-03-18T22:51:00Z;5;-14.4;320;20;1013
KMIA;25.8;-80.28;3;2018-03-18T22:53:00Z;25;19.4;140;19;1013
TXKF;32.37;-64.68;6;2018-03-18T22:55:00Z;17;13;230;33;1006
SCEL;-33.37;-70.77;476;2018-03-18T22:00:00Z;24;6;180;19;1013
UUEE;55.97;37.42;190;2018-03-18T22:30:00Z;-9;-15;220;19;1014
KSEA;47.45;-122.32;136;2018-03-18T22:53:00Z;12.2;1.1;180;9;1021
KLAX;33.93;-118.38;46;2018-03-18T22:53:00Z;15;5;250;20;1020
PAFA;64.8;-147.85;132;2018-03-18T22:53:00Z;-2.2;-5.6;0;0;1016
KMCI;39.3;-94.73;320;2018-03-18T22:53:00Z;8.3;2.8;70;15;1011
GMMX;31.62;-8.02;466;2018-03-18T22:30:00Z;14;10;310;6;1020
VTBD;13.92;100.6;3;2018-03-18T22:30:00Z;28;26;170;9;1010
HRYR;-1.97;30.12;1497;2018-03-18T18:00:00Z;21;16;320;15;1017
LEMD;40.48;-3.57;582;2018-03-18T22:30:00Z;9;-2;260;13;1010
EDDT;52.57;13.32;37;2018-03-18T22:50:00Z;-3;-15;70;11;1018
HECA;30.12;31.38;74;2018-03-18T22:30:00Z;23;-2;150;15;1007
EGLL;51.48;-0.45;24;2018-03-18T22:50:00Z;0;-2;60;13;1011
RJTT;35.53;139.77;8;2018-03-18T22:30:00Z;14;9;220;13;1016
YSSY;-33.95;151.17;3;2018-03-18T22:30:00Z;23;17;240;11;1016
