station_ID;latitude;longitude;elevation_m;observation_time;temperature;dewpoint;wind_dir_degrees;wind_speed;pressure_hpa
SKBO;4.7;-74.12;2548;2018-03-07T04:00:00Z;11;9;50;9;1028
SCEL;-33.37;-70.77;476;2018-03-07T04:00:00Z;15;11;160;15;1012
KSEA;47.45;-122.32;136;2018-03-07T03:53:00Z;6.7;-0.6;10;19;1023
PAFA;64.8;-147.85;132;2018-03-07T03:53:00Z;-4.4;-7.2;0;0;1015
KJFK;40.63;-73.77;9;2018-03-07T04:23:00Z;3.3;-1.1;110;26;1015
OMAA;24.42;54.63;27;2018-03-07T04:00:00Z;17;13;210;2;1015
TXKF;32.37;-64.68;6;2018-03-07T03:55:00Z;16;8;320;33;1012
SBGL;-22.82;-43.25;6;2018-03-07T04:00:00Z;27;22;70;4;1010
FAOR;-26.12;28.22;1700;2018-03-07T04:00:00Z;17;13;350;11;1022
HRYR;-1.97;30.12;1497;2018-03-07T04:00:00Z;17;16;10;4;1021
EDDT;52.57;13.32;37;2018-03-07T04:20:00Z;0;0;360;6;991
KLAX;33.93;-118.38;46;2018-03-07T03:53:00Z;16.1;2.8;260;15;1017
VTBD;13.92;100.6;3;2018-03-07T04:00:00Z;33;26;210;11;1012
RJTT;35.53;139.77;8;2018-03-07T04:00:00Z;7;1;60;30;1033
LEMD;40.48;-3.57;582;2018-03-07T04:00:00Z;5;-2;260;19;1007
YSSY;-33.95;151.17;3;2018-03-07T04:00:00Z;24;12;130;22;1025
GMMX;31.62;-8.02;466;2018-03-07T04:00:00Z;15;12;210;7;1014
EGLL;51.48;-0.45;24;2018-03-07T04:20:00Z;5;4;340;4;990
UUEE;55.97;37.42;190;2018-03-07T04:00:00Z;-10;-14;110;15;1012
ZSNJ;31.75;118.87;33;2018-03-07T04:00:00Z;6;6;60;11;1023
KMIA;25.8;-80.28;3;2018-03-07T03:53:00Z;20;15;200;7;1017
HECA;30.12;31.38;74;2018-03-07T04:00:00Z;17;15;130;11;1017
KMCI;39.3;-94.73;320;2018-03-07T03:53:00Z;0;-5;320;28;1021
