station_ID;latitude;longitude;elevation_m;observation_time;temperature;dewpoint;wind_dir_degrees;wind_speed;pressure_hpa
SCEL;-33.37;-70.77;476;2018-03-15T13:00:00Z;16;2;40;7;1014
SKBO;4.7;-74.12;2548;2018-03-15T13:00:00Z;12;9;40;13;1028
SBGL;-22.82;-43.25;6;2018-03-15T13:00:00Z;29;23;80;7;1011
OMAA;24.42;54.63;27;2018-03-15T12:00:00Z;27;13;320;19;1010
ZSNJ;31.75;118.87;33;2018-03-15T12:00:00Z;10;9;40;22;1017
KMIA;25.8;-80.28;3;2018-03-15T12:53:00Z;13.3;6.1;0;7;1022
KMCI;39.3;-94.73;320;2018-03-15T12:53:00Z;6.1;-3.3;210;15;1010
TXKF;32.37;-64.68;6;2018-03-15T12:55:00Z;17;7;270;43;1012
FAOR;-26.12;28.22;1700;2018-03-15T12:00:00Z;27;12;290;17;1020
KSEA;47.45;-122.32;136;2018-03-15T12:53:00Z;3.3;0;140;7;1010
KJFK;40.63;-73.77;9;2018-03-15T12:51:00Z;2.2;-7.8;280;33;1003
PAFA;64.8;-147.85;132;2018-03-15T12:53:00Z;-5;-6.1;200;6;1012
HRYR;-1.97;30.12;1497;2018-03-15T12:30:00Z;18;17;90;11;1018
UUEE;55.97;37.42;190;2018-03-15T12:30:00Z;-3;-6;320;19;1004
HECA;30.12;31.38;74;2018-03-15T12:30:00Z;25;4;30;11;1014
KLAX;33.93;-118.38;46;2018-03-15T12:53:00Z;12.8;10.6;290;17;1013
EGLL;51.48;-0.45;24;2018-03-15T12:50:00Z;11;8;160;15;989
EDDT;52.57;13.32;37;2018-03-15T12:50:00Z;5;0;80;22;1009
RJTT;35.53;139.77;8;2018-03-15T12:35:00Z;17;11;190;33;1013
GMMX;31.62;-8.02;466;2018-03-15T12:30:00Z;19;7;270;15;1012
VTBD;13.92;100.6;3;2018-03-15T12:30:00Z;30;23;160;15;1008
LEMD;40.48;-3.57;582;2018-03-15T12:30:00Z;12;4;210;30;1002
YSSY;-33.95;151.17;3;2018-03-15T12:30:00Z;23;19;150;26;1015
