station_ID;latitude;longitude;elevation_m;observation_time;temperature;dewpoint;wind_dir_degrees;wind_speed;pressure_hpa
KMIA;25.8;-80.28;3;2018-04-16T15:53:00Z;22.8;13.9;310;15;1020
KJFK;40.63;-73.77;9;2018-04-16T16:26:00Z;12.8;12.2;160;46;1001
ZSNJ;31.75;118.87;33;2018-04-16T16:00:00Z;9;5;120;7;1020
SKBO;4.7;-74.12;2548;2018-04-16T16:00:00Z;18;9;0;4;1030
KLAX;33.93;-118.38;46;2018-04-16T15:53:00Z;14.4;10;270;24;1017
OMAA;24.42;54.63;27;2018-04-16T16:00:00Z;31;6;30;22;1008
KMCI;39.3;-94.73;320;2018-04-16T15:53:00Z;2.2;-5.6;330;22;1023
RJTT;35.53;139.77;8;2018-04-16T16:30:00Z;14;8;60;24;1023
PAFA;64.8;-147.85;132;2018-04-16T15:53:00Z;-7.8;-15;30;15;1015
