station_ID;latitude;longitude;elevation_m;observation_time;temperature;dewpoint;wind_dir_degrees;wind_speed;pressure_hpa
EDDT;52.57;13.32;37;2018-05-03T19:20:00Z;13;-1;30;13;1020
VTBD;13.92;100.6;3;2018-05-03T19:00:00Z;26;24;90;9;1010
OMAA;24.42;54.63;27;2018-05-03T19:00:00Z;31;17;320;20;1008
KMCI;39.3;-94.73;320;2018-05-03T18:53:00Z;26.1;17.8;180;33;1008
RJTT;35.53;139.77;8;2018-05-03T19:00:00Z;16;14;30;24;1004
KLAX;33.93;-118.38;46;2018-05-03T18:53:00Z;18.3;9.4;250;22;1022
GMMX;31.62;-8.02;466;2018-05-03T19:00:00Z;19;8;110;17;1013
KJFK;40.63;-73.77;9;2018-05-03T18:51:00Z;25;13.3;190;28;1014
SCEL;-33.37;-70.77;476;2018-05-03T19:00:00Z;24;2;170;15;1015
