station_ID;latitude;longitude;elevation_m;observation_time;temperature;dewpoint;wind_dir_degrees;wind_speed;pressure_hpa
FAOR;-26.12;28.22;1700;2018-05-06T23:00:00Z;10;-2;110;13;1028
SCEL;-33.37;-70.77;476;2018-05-06T23:00:00Z;18;9;180;9;1017
TXKF;32.37;-64.68;6;2018-05-06T22:55:00Z;22;20;160;22;1025
ZSNJ;31.75;118.87;33;2018-05-06T23:00:00Z;17;15;0;4;1008
SBGL;-22.82;-43.25;6;2018-05-06T23:00:00Z;24;20;240;7;1020
OMAA;24.42;54.63;27;2018-05-06T23:00:00Z;28;20;200;6;1006
PAFA;64.8;-147.85;132;2018-05-06T22:53:00Z;11.1;-5.6;200;22;1017
KJFK;40.63;-73.77;9;2018-05-06T22:51:00Z;15.6;10;30;19;1012
SKBO;4.7;-74.12;2548;2018-05-06T23:00:00Z;16;9;110;9;1027
KSEA;47.45;-122.32;136;2018-05-06T22:53:00Z;23.9;11.7;250;11;1016
KLAX;33.93;-118.38;46;2018-05-06T22:53:00Z;18.9;11.7;240;28;1015
KMCI;39.3;-94.73;320;2018-05-06T22:53:00Z;28.9;8.9;320;17;1017
KMIA;25.8;-80.28;3;2018-05-06T22:53:00Z;27.8;22.2;150;19;1013
EDDT;52.57;13.32;37;2018-05-06T23:20:00Z;13;8;60;6;1025
YSSY;-33.95;151.17;3;2018-05-06T23:30:00Z;19;11;330;11;1025
GMMX;31.62;-8.02;466;2018-05-06T23:30:00Z;15;14;210;6;1014
UUEE;55.97;37.42;190;2018-05-06T23:30:00Z;8;6;20;7;1022
HRYR;-1.97;30.12;1497;2018-05-06T23:30:00Z;18;17;320;9;1021
HECA;30.12;31.38;74;2018-05-06T23:30:00Z;21;18;320;19;1009
LEMD;40.48;-3.57;582;2018-05-06T23:30:00Z;14;14;360;9;1017
EGLL;51.48;-0.45;24;2018-05-06T23:20:00Z;16;6;70;6;1020
VTBD;13.92;100.6;3;2018-05-06T23:30:00Z;25;24;130;9;1010
RJTT;35.53;139.77;8;2018-05-06T23:30:00Z;20;13;230;26;1008
