station_ID;latitude;longitude;elevation_m;observation_time;temperature;dewpoint;wind_dir_degrees;wind_speed;pressure_hpa
OMAA;24.42;54.63;27;2018-06-16T18:00:00Z;34;16;270;19;1000
FAOR;-26.12;28.22;1700;2018-06-16T18:00:00Z;9;-2;200;15;1027
SKBO;4.7;-74.12;2548;2018-06-16T18:00:00Z;18;10;140;22;1028
SBGL;-22.82;-43.25;6;2018-06-16T18:00:00Z;22;18;270;15;1023
ZSNJ;31.75;118.87;33;2018-06-16T18:00:00Z;23;18;100;19;1006
KJFK;40.63;-73.77;9;2018-06-16T17:51:00Z;26.7;12.8;200;26;1016
SCEL;-33.37;-70.77;476;2018-06-16T18:00:00Z;20;2;0;2;1019
KMCI;39.3;-94.73;320;2018-06-16T17:53:00Z;33.3;21.1;210;26;1012
KSEA;47.45;-122.32;136;2018-06-16T17:53:00Z;17.8;10;20;17;1016
PAFA;64.8;-147.85;132;2018-06-16T17:53:00Z;12.8;6.7;0;0;1004
KLAX;33.93;-118.38;46;2018-06-16T17:53:00Z;21.1;12.8;180;15;1011
KMIA;25.8;-80.28;3;2018-06-16T17:53:00Z;28.3;24.4;110;13;1018
LEMD;40.48;-3.57;582;2018-06-16T18:00:00Z;30;11;360;15;1015
HRYR;-1.97;30.12;1497;2018-06-16T17:30:00Z;24;11;360;7;1020
EDDT;52.57;13.32;37;2018-06-16T17:50:00Z;25;9;160;7;1013
YSSY;-33.95;151.17;3;2018-06-16T18:00:00Z;10;1;320;17;1011
UUEE;55.97;37.42;190;2018-06-16T18:00:00Z;20;7;60;11;1020
VTBD;13.92;100.6;3;2018-06-16T18:00:00Z;28;23;220;15;1005
EGLL;51.48;-0.45;24;2018-06-16T17:50:00Z;18;12;210;26;1013
GMMX;31.62;-8.02;466;2018-06-16T18:00:00Z;31;14;280;24;1013
TXKF;32.37;-64.68;6;2018-06-16T17:55:00Z;26;19;320;19;1014
RJTT;35.53;139.77;8;2018-06-16T18:00:00Z;16;14;30;15;1015
