station_ID;latitude;longitude;elevation_m;observation_time;temperature;dewpoint;wind_dir_degrees;wind_speed;pressure_hpa
TXKF;32.37;-64.68;6;2018-05-22T14:55:00Z;25;18;200;19;1025
OMAA;24.42;54.63;27;2018-05-22T15:00:00Z;36;12;350;19;1006
SBGL;-22.82;-43.25;6;2018-05-22T15:00:00Z;23;12;20;11;1018
KMIA;25.8;-80.28;3;2018-05-22T14:53:00Z;26.1;22.2;120;30;1019
RJTT;35.53;139.77;8;2018-05-22T15:00:00Z;18;14;140;11;1016
VTBD;13.92;100.6;3;2018-05-22T15:00:00Z;27;25;140;6;1011
UUEE;55.97;37.42;190;2018-05-22T15:00:00Z;21;11;160;19;1024
