station_ID;latitude;longitude;elevation_m;observation_time;temperature;dewpoint;wind_dir_degrees;wind_speed;pressure_hpa
OMAA;24.42;54.63;27;2018-05-07T19:00:00Z;29;24;20;6;1005
KJFK;40.63;-73.77;9;2018-05-07T18:51:00Z;21.1;10.6;180;19;1019
LEMD;40.48;-3.57;582;2018-05-07T19:00:00Z;17;14;240;13;1014
EDDT;52.57;13.32;37;2018-05-07T18:50:00Z;21;7;70;6;1020
SBGL;-22.82;-43.25;6;2018-05-07T19:00:00Z;26;18;190;13;1019
VTBD;13.92;100.6;3;2018-05-07T19:00:00Z;29;27;180;4;1007
