station_ID;latitude;longitude;elevation_m;observation_time;temperature;dewpoint;wind_dir_degrees;wind_speed;pressure_hpa
SKBO;4.7;-74.12;2548;2018-04-25T11:00:00Z;11;10;0;4;1028
SCEL;-33.37;-70.77;476;2018-04-25T11:00:00Z;7;4;310;6;1017
ZSNJ;31.75;118.87;33;2018-04-25T10:00:00Z;21;12;0;4;1014
OMAA;24.42;54.63;27;2018-04-25T10:00:00Z;31;19;300;31;1009
UUEE;55.97;37.42;190;2018-04-25T10:30:00Z;12;5;200;15;1004
YSSY;-33.95;151.17;3;2018-04-25T10:30:00Z;20;18;220;15;1014
EDDT;52.57;13.32;37;2018-04-25T10:50:00Z;18;9;230;39;1004
EGLL;51.48;-0.45;24;2018-04-25T10:50:00Z;13;6;240;26;1013
