station_ID;latitude;longitude;elevation_m;observation_time;temperature;dewpoint;wind_dir_degrees;wind_speed;pressure_hpa
KLAX;33.93;-118.38;46;2018-05-28T07:53:00Z;16.1;12.8;320;9;1015
PAFA;64.8;-147.85;132;2018-05-28T07:53:00Z;11.1;-2.2;350;11;1008
EGLL;51.48;-0.45;24;2018-05-28T08:20:00Z;16;15;360;9;1019
EDDT;52.57;13.32;37;2018-05-28T08:20:00Z;26;15;80;15;1020
VTBD;13.92;100.6;3;2018-05-28T08:00:00Z;33;26;10;7;1006
LEMD;40.48;-3.57;582;2018-05-28T08:00:00Z;15;15;0;4;1014
KJFK;40.63;-73.77;9;2018-05-28T08:13:00Z;12.8;11.7;30;15;1018
