station_ID;latitude;longitude;elevation_m;observation_time;temperature;dewpoint;wind_dir_degrees;wind_speed;pressure_hpa
HECA;30.12;31.38;74;2018-03-20T18:30:00Z;25;5;30;15;1017
KLAX;33.93;-118.38;46;2018-03-20T18:53:00Z;18.3;9.4;250;11;1017
KMCI;39.3;-94.73;320;2018-03-20T18:53:00Z;8.3;1.1;310;19;1014
LEMD;40.48;-3.57;582;2018-03-20T18:30:00Z;5;-4;340;43;1019
PAFA;64.8;-147.85;132;2018-03-20T18:53:00Z;-3.9;-6.1;0;0;1022
EGLL;51.48;-0.45;24;2018-03-20T18:50:00Z;5;-2;0;6;1032
KJFK;40.63;-73.77;9;2018-03-20T18:51:00Z;1.7;-12.2;30;24;1012
