station_ID;latitude;longitude;elevation_m;observation_time;temperature;dewpoint;wind_dir_degrees;wind_speed;pressure_hpa
ZSNJ;31.75;118.87;33;2018-04-12T12:00:00Z;18;10;80;30;1015
KLAX;33.93;-118.38;46;2018-04-12T12:53:00Z;13.3;8.9;250;15;1015
KSEA;47.45;-122.32;136;2018-04-12T12:53:00Z;5;3.3;200;22;1010
RJTT;35.53;139.77;8;2018-04-12T12:30:00Z;17;7;40;6;1011
YSSY;-33.95;151.17;3;2018-04-12T12:30:00Z;28;10;320;24;1012
EGLL;51.48;-0.45;24;2018-04-12T12:50:00Z;10;8;40;17;1003
GMMX;31.62;-8.02;466;2018-04-12T12:30:00Z;18;1;220;19;1013
HRYR;-1.97;30.12;1497;2018-04-12T12:30:00Z;21;17;30;17;1017
