station_ID;latitude;longitude;elevation_m;observation_time;temperature;dewpoint;wind_dir_degrees;wind_speed;pressure_hpa
SBGL;-22.82;-43.25;6;2018-05-30T13:00:00Z;22;16;350;4;1023
EGLL;51.48;-0.45;24;2018-05-30T12:50:00Z;17;14;0;4;1013
KLAX;33.93;-118.38;46;2018-05-30T12:53:00Z;15.6;13.9;150;9;1011
KSEA;47.45;-122.32;136;2018-05-30T12:53:00Z;9.4;5;170;6;1017
HRYR;-1.97;30.12;1497;2018-05-30T13:00:00Z;25;14;120;7;1020
VTBD;13.92;100.6;3;2018-05-30T13:00:00Z;29;27;150;6;1009
LEMD;40.48;-3.57;582;2018-05-30T13:00:00Z;17;13;210;17;1015
KMCI;39.3;-94.73;320;2018-05-30T12:53:00Z;17.8;17.2;260;9;1007
TXKF;32.37;-64.68;6;2018-05-30T13:03:00Z;22;22;300;33;1018
