station_ID;latitude;longitude;elevation_m;observation_time;temperature;dewpoint;wind_dir_degrees;wind_speed;pressure_hpa
ZSNJ;31.75;118.87;33;2018-05-02T11:00:00Z;20;12;40;15;1017
PAFA;64.8;-147.85;132;2018-05-02T11:53:00Z;-1.1;-2.2;210;7;1012
VTBD;13.92;100.6;3;2018-05-02T11:30:00Z;30;24;220;20;1009
OMAA;24.42;54.63;27;2018-05-02T11:00:00Z;37;10;320;26;1008
HRYR;-1.97;30.12;1497;2018-05-02T11:30:00Z;24;18;0;6;1021
EDDT;52.57;13.32;37;2018-05-02T11:50:00Z;14;2;100;15;1016
KLAX;33.93;-118.38;46;2018-05-02T11:53:00Z;12.8;10;100;6;1013
RJTT;35.53;139.77;8;2018-05-02T11:30:00Z;20;16;190;19;1010
