station_ID;latitude;longitude;elevation_m;observation_time;temperature;dewpoint;wind_dir_degrees;wind_speed;pressure_hpa
ZSNJ;31.75;118.87;33;2018-05-14T11:00:00Z;30;24;130;11;1003
SCEL;-33.37;-70.77;476;2018-05-14T11:00:00Z;8;6;0;4;1019
SKBO;4.7;-74.12;2548;2018-05-14T11:00:00Z;12;10;0;4;1027
GMMX;31.62;-8.02;466;2018-05-14T11:30:00Z;23;8;10;11;1015
KLAX;33.93;-118.38;46;2018-05-14T10:53:00Z;13.9;11.1;0;0;1015
RJTT;35.53;139.77;8;2018-05-14T11:30:00Z;22;11;40;11;1010
VTBD;13.92;100.6;3;2018-05-14T11:30:00Z;28;25;60;7;1008
EGLL;51.48;-0.45;24;2018-05-14T11:20:00Z;18;1;360;19;1020
KMIA;25.8;-80.28;3;2018-05-14T10:53:00Z;23.9;23.3;150;17;1014
