station_ID;latitude;longitude;elevation_m;observation_time;temperature;dewpoint;wind_dir_degrees;wind_speed;pressure_hpa
ZSNJ;31.75;118.87;33;2018-03-16T12:00:00Z;7;3;80;11;1027
TXKF;32.37;-64.68;6;2018-03-16T11:55:00Z;19;11;260;46;1013
SKBO;4.7;-74.12;2548;2018-03-16T12:00:00Z;12;10;0;4;1028
KMIA;25.8;-80.28;3;2018-03-16T11:53:00Z;14.4;10.6;0;0;1020
KLAX;33.93;-118.38;46;2018-03-16T11:53:00Z;11.7;7.8;150;11;1017
EGLL;51.48;-0.45;24;2018-03-16T11:50:00Z;10;6;210;22;1000
PAFA;64.8;-147.85;132;2018-03-16T11:53:00Z;-7.8;-10.6;50;13;1010
KJFK;40.63;-73.77;9;2018-03-16T11:51:00Z;1.1;-5;300;30;1005
GMMX;31.62;-8.02;466;2018-03-16T12:06:00Z;11;6;250;7;1015
