station_ID;latitude;longitude;elevation_m;observation_time;temperature;dewpoint;wind_dir_degrees;wind_speed;pressure_hpa
ZSNJ;31.75;118.87;33;2018-04-09T21:00:00Z;13;12;0;4;1009
KLAX;33.93;-118.38;46;2018-04-09T20:53:00Z;26.7;11.1;270;19;1013
EDDT;52.57;13.32;37;2018-04-09T20:50:00Z;16;6;70;9;1005
VTBD;13.92;100.6;3;2018-04-09T21:00:00Z;26;21;0;0;1009
KMIA;25.8;-80.28;3;2018-04-09T20:53:00Z;31.7;19.4;180;20;1015
TXKF;32.37;-64.68;6;2018-04-09T20:55:00Z;19;11;360;11;1021
UUEE;55.97;37.42;190;2018-04-09T21:00:00Z;11;1;200;15;1015
RJTT;35.53;139.77;8;2018-04-09T21:00:00Z;11;0;360;13;1022
