station_ID;latitude;longitude;elevation_m;observation_time;temperature;dewpoint;wind_dir_degrees;wind_speed;pressure_hpa
SKBO;4.7;-74.12;2548;2018-03-18T05:00:00Z;13;10;30;7;1027
SCEL;-33.37;-70.77;476;2018-03-18T06:00:00Z;14;9;160;15;1019
TXKF;32.37;-64.68;6;2018-03-18T05:55:00Z;18;12;240;31;1011
SBGL;-22.82;-43.25;6;2018-03-18T06:00:00Z;24;22;350;2;1011
ZSNJ;31.75;118.87;33;2018-03-18T05:00:00Z;11;11;0;4;1015
OMAA;24.42;54.63;27;2018-03-18T05:00:00Z;25;18;300;17;1012
HRYR;-1.97;30.12;1497;2018-03-18T05:30:00Z;19;17;270;7;1019
UUEE;55.97;37.42;190;2018-03-18T05:30:00Z;-17;-21;290;15;1017
HECA;30.12;31.38;74;2018-03-18T05:30:00Z;15;10;50;7;1010
