station_ID;latitude;longitude;elevation_m;observation_time;temperature;dewpoint;wind_dir_degrees;wind_speed;pressure_hpa
OMAA;24.42;54.63;27;2018-03-26T07:00:00Z;32;7;0;9;1019
KLAX;33.93;-118.38;46;2018-03-26T06:53:00Z;13.9;-3.3;10;20;1015
HRYR;-1.97;30.12;1497;2018-03-26T06:30:00Z;19;18;90;15;1023
KMIA;25.8;-80.28;3;2018-03-26T06:53:00Z;21.1;17.8;0;0;1019
KSEA;47.45;-122.32;136;2018-03-26T06:53:00Z;6.1;0;180;20;1022
PAFA;64.8;-147.85;132;2018-03-26T06:53:00Z;-8.9;-18.9;60;15;1005
RJTT;35.53;139.77;8;2018-03-26T07:00:00Z;18;11;180;31;1016
YSSY;-33.95;151.17;3;2018-03-26T07:00:00Z;25;-3;250;24;1008
