station_ID;latitude;longitude;elevation_m;observation_time;temperature;dewpoint;wind_dir_degrees;wind_speed;pressure_hpa
HECA;30.12;31.38;74;2018-03-21T04:30:00Z;17;-3;30;11;1018
VTBD;13.92;100.6;3;2018-03-21T04:30:00Z;32;25;90;9;1011
PAFA;64.8;-147.85;132;2018-03-21T04:53:00Z;-2.2;-8.9;280;39;1028
EGLL;51.48;-0.45;24;2018-03-21T04:50:00Z;0;-1;280;6;1033
SBGL;-22.82;-43.25;6;2018-03-21T04:00:00Z;28;23;260;17;1011
HRYR;-1.97;30.12;1497;2018-03-21T04:00:00Z;18;17;0;4;1021
ZSNJ;31.75;118.87;33;2018-03-21T04:00:00Z;8;3;330;15;1023
EDDT;52.57;13.32;37;2018-03-21T04:50:00Z;-7;-7;0;0;1026
YSSY;-33.95;151.17;3;2018-03-21T04:30:00Z;21;15;140;35;1027
