station_ID;latitude;longitude;elevation_m;observation_time;temperature;dewpoint;wind_dir_degrees;wind_speed;pressure_hpa
SBGL;-22.82;-43.25;6;2018-03-16T15:00:00Z;33;22;200;22;1011
SCEL;-33.37;-70.77;476;2018-03-16T15:00:00Z;20;2;240;6;1016
LEMD;40.48;-3.57;582;2018-03-16T15:00:00Z;8;3;220;24;1004
PAFA;64.8;-147.85;132;2018-03-16T14:53:00Z;-6.7;-10;50;15;1009
RJTT;35.53;139.77;8;2018-03-16T15:00:00Z;7;4;40;31;1020
GMMX;31.62;-8.02;466;2018-03-16T15:00:00Z;14;2;270;9;1014
