station_ID;latitude;longitude;elevation_m;observation_time;temperature;dewpoint;wind_dir_degrees;wind_speed;pressure_hpa
ZSNJ;31.75;118.87;33;2018-04-26T15:00:00Z;17;16;0;4;1015
SBGL;-22.82;-43.25;6;2018-04-26T15:00:00Z;29;21;120;7;1017
TXKF;32.37;-64.68;6;2018-04-26T14:55:00Z;22;20;150;33;1019
KMCI;39.3;-94.73;320;2018-04-26T14:53:00Z;11.1;6.1;300;7;1017
UUEE;55.97;37.42;190;2018-04-26T15:30:00Z;9;7;250;35;1000
HECA;30.12;31.38;74;2018-04-26T15:30:00Z;28;9;320;22;1009
PAFA;64.8;-147.85;132;2018-04-26T14:53:00Z;-1.1;-3.9;0;0;1016
